{
  "stadiums": [
    {
      "id": "663b9b938521172027ef070c",
      "name": "Stadion Z'dežele",
      "teamId": "663b9b918521172027ef0702",
      "capacity": "13600",
      "location": {
        "type": "Point",
        "coordinates": [
          46.246234, 
          15.270685
        ]
      },
      "buildYear": "2003",
      "imageUrl": "https://www.prvaliga.si/Img/Stadioni/stadion_arena_petrol%20(1).jpg"
    },
    {
      "id": "663b9b938521172027ef070d",
      "name": "ŠRC Stožice",
      "teamId": "663b9b918521172027ef0703",
      "capacity": "15507",
      "location": {
        "type": "Point",
        "coordinates": [
          46.080509, 
          14.523458
        ]
      },
      "buildYear": "2010",
      "imageUrl": "https://www.prvaliga.si/Img/Stadioni/stadion_stozice.jpg"
    },
    {
      "id": "663b9b948521172027ef070e",
      "name": "Ljudski vrt",
      "teamId": "663b9b918521172027ef0704",
      "capacity": "11671",
      "location": {
        "type": "Point",
        "coordinates": [
          46.562978, 
          15.639870
        ]
      },
      "buildYear": "1952",
      "imageUrl": "https://www.prvaliga.si/Img/Stadioni/stadion_ljudski_vrt%20(1).jpg"
    },
    {
      "id": "663b9b948521172027ef070f",
      "name": "ŠRC Bonifika",
      "teamId": "663b9b918521172027ef0705",
      "capacity": "4010",
      "location": {
        "type": "Point",
        "coordinates": [
          45.540904, 
          13.732231
        ]
      },
      "buildYear": "1947",
      "imageUrl": "https://www.prvaliga.si/Img/Stadioni/stadion_bonifika%20(1).jpg"
    },
    {
      "id": "663b9b948521172027ef0710",
      "name": "Športni park Šiška",
      "teamId": "663b9b928521172027ef0706",
      "capacity": "2308",
      "location": {
        "type": "Point",
        "coordinates": [
          46.0702347,
          14.4991795
        ]
      },
      "buildYear": "1953",
      "imageUrl": "https://www.prvaliga.si/Img/Novice/2019_2020/Siska.jpg"
    },
    {
      "id": "663b9b958521172027ef0711",
      "name": "Mestni stadion Fazanerija",
      "teamId": "663b9b928521172027ef0707",
      "capacity": "3782",
      "location": {
        "type": "Point",
        "coordinates": [
          46.6683732, 
          16.1583485
        ]
      },
      "buildYear": "1983",
      "imageUrl": "https://www.prvaliga.si/Img/Novice/2017_2018/Fazanerija1920%20(2).jpg"
    },
    {
      "id": "663b9b958521172027ef0712",
      "name": "Športni park Domžale",
      "teamId": "663b9b928521172027ef0708",
      "capacity": "3100",
      "location": {
        "type": "Point",
        "coordinates": [
          46.1355519, 
          14.6018056
        ]
      },
      "buildYear": "1948",
      "imageUrl": "https://www.prvaliga.si/Img/Stadioni/stadion_domzale.jpg"
    },
    {
      "id": "663b9b958521172027ef0713",
      "name": "Športni center Rogaška Slatina",
      "teamId": "663b9b928521172027ef0709",
      "capacity": "2023",
      "location": {
        "type": "Point",
        "coordinates": [
          46.2195485,
          15.6395026
        ]
      },
      "buildYear": "1948",
      "imageUrl": "https://www.prvaliga.si/Img/PLTS%20napovedniki/Clanki%20-%20fotografije/SportniCenterRogaska.jpg"
    },
    {
      "id": "663b9b968521172027ef0714",
      "name": "Stadion",
      "teamId": "663b9b928521172027ef070a",
      "capacity": "3100",
      "location": {
        "type": "Point",
        "coordinates": [
          46.1727053, 
          14.6198498
        ]
      },
      "buildYear": "1948",
      "imageUrl": "https://www.prvaliga.si/Img/Stadioni/stadion_domzale.jpg"
    },
    {
      "id": "663b9b968521172027ef0715",
      "name": "Športni park Aluminij",
      "teamId": "663b9b938521172027ef070b",
      "capacity": "2017",
      "location": {
        "type": "Point",
        "coordinates": [
          46.4072457,
          15.7906726
        ]
      },
      "buildYear": "1950",
      "imageUrl": "https://www.prvaliga.si/Img/Stadioni/Stadion_Aluminij%20(1).jpg"
    }
  ]
}